[
  {
    "title": "創辦人 — 吳哲宇 Che-Yu Wu",
    "lat": 25.033,
    "lng": 121.565,
    "category": "about",
    "region": "north",
    "link": "/about/%E5%89%B5%E8%BE%A6%E4%BA%BA%20%E2%80%94%20%E5%90%B3%E5%93%B2%E5%AE%87%20Che-Yu%20Wu",
    "desc": "從程式碼到詩意：一位台灣藝術家的國際突破之路",
    "city": "台北"
  },
  {
    "title": "台灣官方網站資源：從25個網站到數位政府強國的30年奇蹟",
    "lat": 25.031961,
    "lng": 121.560761,
    "category": "about",
    "region": "north",
    "link": "/about/%E5%8F%B0%E7%81%A3%E5%AE%98%E6%96%B9%E7%B6%B2%E7%AB%99%E8%B3%87%E6%BA%90%EF%BC%9A%E5%BE%9E25%E5%80%8B%E7%B6%B2%E7%AB%99%E5%88%B0%E6%95%B8%E4%BD%8D%E6%94%BF%E5%BA%9C%E5%BC%B7%E5%9C%8B%E7%9A%8430%E5%B9%B4%E5%A5%87%E8%B9%9F",
    "desc": "1996年，台灣為了參加網際網路世界博覽會，25個政府機關建置了第一批官方網站。30年後的今天，這座島嶼成為全球數位政府的典範——從網路報稅到單一入口網站，從開放資料到AI語料庫，探索台灣如何用官方網站寫下數位轉型的傳奇。",
    "city": "台北"
  },
  {
    "title": "台灣傳統藝術",
    "lat": 22.996,
    "lng": 120.161,
    "category": "art",
    "region": "south",
    "link": "/art/%E5%8F%B0%E7%81%A3%E5%82%B3%E7%B5%B1%E8%97%9D%E8%A1%93",
    "desc": "21世紀最大的文化產業奇蹟：年產值千億的霹靂布袋戲帝國，如何從鄉間謝神小戲變成征服全球的文化軟實力？",
    "city": "台南"
  },
  {
    "title": "台灣原住民當代藝術",
    "lat": 25.027421,
    "lng": 121.557422,
    "category": "art",
    "region": "north",
    "link": "/art/%E5%8F%B0%E7%81%A3%E5%8E%9F%E4%BD%8F%E6%B0%91%E7%95%B6%E4%BB%A3%E8%97%9D%E8%A1%93",
    "desc": "從傳統工藝到當代創作，探索台灣原住民藝術家如何在全球藝術舞台上發聲，重新定義原住民身份與當代藝術的對話",
    "city": "台北"
  },
  {
    "title": "台灣建築",
    "lat": 25.038405,
    "lng": 121.568984,
    "category": "art",
    "region": "north",
    "link": "/art/%E5%8F%B0%E7%81%A3%E5%BB%BA%E7%AF%89",
    "desc": "從石板屋到摩天樓：一座島嶼的建築時光之旅",
    "city": "台北"
  },
  {
    "title": "台灣新媒體藝術",
    "lat": 25.026942,
    "lng": 121.557237,
    "category": "art",
    "region": "north",
    "link": "/art/%E5%8F%B0%E7%81%A3%E6%96%B0%E5%AA%92%E9%AB%94%E8%97%9D%E8%A1%93",
    "desc": "從1980年代錄像先驅到威尼斯VR大獎，16位關鍵藝術家與40年數位藝術革命的完整脈絡。台灣如何用程式碼寫詩，在國際藝術版圖刻下自己的名字。",
    "city": "台北"
  },
  {
    "title": "台灣水彩畫的百年流變",
    "lat": 24.804,
    "lng": 120.969,
    "category": "art",
    "region": "north",
    "link": "/art/%E5%8F%B0%E7%81%A3%E6%B0%B4%E5%BD%A9%E7%95%AB%E7%9A%84%E7%99%BE%E5%B9%B4%E6%B5%81%E8%AE%8A",
    "desc": "從日治時期石川欽一郎的啟蒙，到當代簡忠威揚名國際，台灣水彩畫走過百年歷程，成為亞洲最活躍的水彩創作重鎮。",
    "city": "新竹"
  },
  {
    "title": "台灣現代詩",
    "lat": 24.081,
    "lng": 120.539,
    "category": "art",
    "region": "central",
    "link": "/art/%E5%8F%B0%E7%81%A3%E7%8F%BE%E4%BB%A3%E8%A9%A9",
    "desc": "從三個書房走出的現代主義實驗，如何意外催生最鄉土的詩歌革命",
    "city": "彰化"
  },
  {
    "title": "台灣當代雕塑發展",
    "lat": 25.029126,
    "lng": 121.565881,
    "category": "art",
    "region": "north",
    "link": "/art/%E5%8F%B0%E7%81%A3%E7%95%B6%E4%BB%A3%E9%9B%95%E5%A1%91%E7%99%BC%E5%B1%95",
    "desc": "從楊英風、朱銘到新世代，探索台灣雕塑藝術的演變軌跡與創作精神",
    "city": "台北"
  },
  {
    "title": "台灣策展人與藝術文化建構",
    "lat": 25.037867,
    "lng": 121.558946,
    "category": "art",
    "region": "north",
    "link": "/art/%E5%8F%B0%E7%81%A3%E7%AD%96%E5%B1%95%E4%BA%BA%E8%88%87%E8%97%9D%E8%A1%93%E6%96%87%E5%8C%96%E5%BB%BA%E6%A7%8B",
    "desc": "從 1990 年代初的機構萌芽到今日的國際平台，台灣策展人如何在全球化浪潮中建構本土藝術論述，又如何在國際雙年展體系中找到自己的聲音？一段關於文化身份認同與專業建制的 30 年演化史。",
    "city": "台北"
  },
  {
    "title": "台灣當代藝術",
    "lat": 25.029119,
    "lng": 121.568367,
    "category": "art",
    "region": "north",
    "link": "/art/%E5%8F%B0%E7%81%A3%E7%95%B6%E4%BB%A3%E8%97%9D%E8%A1%93",
    "desc": "從北美館到威尼斯雙年展台灣館，台灣當代藝術在全球舞台的獨特位置",
    "city": "台北"
  },
  {
    "title": "金馬賓館當代美術館",
    "lat": 22.627,
    "lng": 120.301,
    "category": "art",
    "region": "south",
    "link": "/art/當代藝術",
    "desc": "一座見證離別與重逢的冷戰軍事驛站，沉睡二十年後被一對父女喚醒，成為《孤獨星球》推薦的高雄首選美術館。",
    "city": "高雄"
  },
  {
    "title": "人間雜誌",
    "lat": 24.994,
    "lng": 121.301,
    "category": "culture",
    "region": "north",
    "link": "/culture/%E4%BA%BA%E9%96%93%E9%9B%9C%E8%AA%8C",
    "desc": "47 期，四年，一場用攝影和文字發動的安靜革命——台灣報導文學的起點",
    "city": "桃園"
  },
  {
    "title": "台灣原住民族16族文化地圖",
    "lat": 22.033,
    "lng": 121.549,
    "category": "culture",
    "region": "east",
    "link": "/culture/原住民族文化",
    "desc": "「16」不是自然生成的數字，是談判的結果。從21萬阿美族到441人的卡那卡那富族，台灣原住民族的文化厚度遠超過任何一份官方名冊。",
    "city": "台東"
  },
  {
    "title": "台灣感性：韓國人眼中的台式美學",
    "lat": 25.02987,
    "lng": 121.562456,
    "category": "culture",
    "region": "north",
    "link": "/culture/%E5%8F%B0%E7%81%A3%E6%84%9F%E6%80%A7%EF%BC%9A%E9%9F%93%E5%9C%8B%E4%BA%BA%E7%9C%BC%E4%B8%AD%E7%9A%84%E5%8F%B0%E5%BC%8F%E7%BE%8E%E5%AD%B8",
    "desc": "從 K-pop MV 到首爾書展，「대만감성」如何讓台灣的日常街景成為亞洲最迷人的美學符號",
    "city": "台北"
  },
  {
    "title": "台灣文化創意園區發展",
    "lat": 22.623619,
    "lng": 120.274011,
    "category": "culture",
    "region": "south",
    "link": "/culture/%E5%8F%B0%E7%81%A3%E6%96%87%E5%8C%96%E5%89%B5%E6%84%8F%E5%9C%92%E5%8D%80%E7%99%BC%E5%B1%95",
    "desc": "從舊建築活化到創意聚落，台灣文化創意園區的發展歷程與創新模式",
    "city": "高雄"
  },
  {
    "title": "台灣老街文化與商業街區",
    "lat": 25.109,
    "lng": 121.845,
    "category": "culture",
    "region": "north",
    "link": "/culture/%E5%8F%B0%E7%81%A3%E8%80%81%E8%A1%97%E6%96%87%E5%8C%96%E8%88%87%E5%95%86%E6%A5%AD%E8%A1%97%E5%8D%80",
    "desc": "從清代港口繁華到日治巴洛克洋樓，台灣老街是一部用磚瓦寫成的庶民史",
    "city": "新北"
  },
  {
    "title": "黃金時代的餘韻：台灣茶文化的流變與工藝",
    "lat": 23.51,
    "lng": 120.7,
    "category": "culture",
    "region": "south",
    "link": "/culture/%E9%BB%83%E9%87%91%E6%99%82%E4%BB%A3%E7%9A%84%E9%A4%98%E9%9F%BB%EF%BC%9A%E5%8F%B0%E7%81%A3%E8%8C%B6%E6%96%87%E5%8C%96%E7%9A%84%E6%B5%81%E8%AE%8A%E8%88%87%E5%B7%A5%E8%97%9D",
    "desc": "1930年代列強簽了限產協定把台灣排除在外，結果台灣紅茶趁勢暴衝——從329萬公斤到580萬。90年後，同一座島嶼每30分鐘開一家手搖飲店。",
    "city": "嘉義"
  },
  {
    "title": "台灣茶道與生活美學",
    "lat": 23.504388,
    "lng": 120.694976,
    "category": "culture",
    "region": "south",
    "link": "/culture/%E5%8F%B0%E7%81%A3%E8%8C%B6%E9%81%93%E8%88%87%E7%94%9F%E6%B4%BB%E7%BE%8E%E5%AD%B8",
    "desc": "一隻蟲咬出的蜜香、一棟日式老屋裡的民主運動、一杯珍奶征服的全球市場——台灣茶文化如何從殖民遺產長成獨特的生活美學",
    "city": "嘉義"
  },
  {
    "title": "台灣街頭藝術與塗鴉文化",
    "lat": 25.027238,
    "lng": 121.561074,
    "category": "culture",
    "region": "north",
    "link": "/culture/%E5%8F%B0%E7%81%A3%E8%A1%97%E9%A0%AD%E8%97%9D%E8%A1%93%E8%88%87%E5%A1%97%E9%B4%89%E6%96%87%E5%8C%96",
    "desc": "從地下塗鴉到合法彩繪，城市牆面如何成為台灣藝術家的創作舞台",
    "city": "台北"
  },
  {
    "title": "台灣製香文化與香腳原鄉",
    "lat": 24.055,
    "lng": 120.437,
    "category": "culture",
    "region": "central",
    "link": "/culture/%E5%8F%B0%E7%81%A3%E8%A3%BD%E9%A6%99%E6%96%87%E5%8C%96%E8%88%87%E9%A6%99%E8%85%B3%E5%8E%9F%E9%84%89",
    "desc": "從嘉義雲霄社區的百年香腳技藝，到台灣遍布全島的製香產業——一門關於虔誠、手藝與堅持的古老行業",
    "city": "彰化"
  },
  {
    "title": "台灣諧音禁忌文化：為什麼「四」讓整個社會跳過樓層？",
    "lat": 24.997998,
    "lng": 121.299728,
    "category": "culture",
    "region": "north",
    "link": "/culture/%E5%8F%B0%E7%81%A3%E8%AB%A7%E9%9F%B3%E7%A6%81%E5%BF%8C%E6%96%87%E5%8C%96%EF%BC%9A%E7%82%BA%E4%BB%80%E9%BA%BC%E3%80%8C%E5%9B%9B%E3%80%8D%E8%AE%93%E6%95%B4%E5%80%8B%E7%A4%BE%E6%9C%83%E8%B7%B3%E9%81%8E%E6%A8%93%E5%B1%A4%EF%BC%9F",
    "desc": "從醫院沒有四樓到車牌8888天價標售，台灣人對諧音的敏感程度堪稱世界之最",
    "city": "桃園"
  },
  {
    "title": "客家文化與語言",
    "lat": 22.682,
    "lng": 120.484,
    "category": "culture",
    "region": "south",
    "link": "/culture/族群（閩南客家原住民外省新住民）",
    "desc": "硬頸精神與天穿日：一個被誤解為「頑固」的族群，如何成為台灣最會適應的文化群體",
    "city": "屏東"
  },
  {
    "title": "擲筊：在 50% 的機率背後，聽見神明的聲音",
    "lat": 23.48,
    "lng": 120.449,
    "category": "culture",
    "region": "south",
    "link": "/culture/%E6%93%B2%E7%AD%8A%EF%BC%9A%E5%9C%A8%2050%25%20%E7%9A%84%E6%A9%9F%E7%8E%87%E8%83%8C%E5%BE%8C%EF%BC%8C%E8%81%BD%E8%A6%8B%E7%A5%9E%E6%98%8E%E7%9A%84%E8%81%B2%E9%9F%B3",
    "desc": "從嘉義竹頭筊職人黃奕薰的堅持，到屏東慈天宮 20 個聖筊的 300 萬傳奇，探討台灣人與神明溝通的機率與溫度。",
    "city": "嘉義"
  },
  {
    "title": "族群（閩南客家原住民外省新住民）",
    "lat": 25.039346,
    "lng": 121.559854,
    "category": "culture",
    "region": "north",
    "link": "/culture/原住民族文化",
    "desc": "一場道歉儀式、一萬人的遊行、57萬個新來的家庭——台灣族群的故事，比「多元共融」四個字複雜得多。",
    "city": "台北"
  },
  {
    "title": "穿越海風的信仰：澎湖元宵乞龜與離島文化的深度探索",
    "lat": 23.571,
    "lng": 119.579,
    "category": "culture",
    "region": "islands",
    "link": "/culture/%E7%A9%BF%E8%B6%8A%E6%B5%B7%E9%A2%A8%E7%9A%84%E4%BF%A1%E4%BB%B0%EF%BC%9A%E6%BE%8E%E6%B9%96%E5%85%83%E5%AE%B5%E4%B9%9E%E9%BE%9C%E8%88%87%E9%9B%A2%E5%B3%B6%E6%96%87%E5%8C%96%E7%9A%84%E6%B7%B1%E5%BA%A6%E6%8E%A2%E7%B4%A2",
    "desc": "探索澎湖獨特的元宵節乞龜文化，從250年歷史中窺見海島子民的智慧與信仰，以及風沙塑造的獨特民俗傳統",
    "city": "澎湖"
  },
  {
    "title": "關聖帝君：一個敗軍之將如何成為台灣的萬能之神",
    "lat": 25.02539,
    "lng": 121.560387,
    "category": "culture",
    "region": "north",
    "link": "/culture/%E9%97%9C%E8%81%96%E5%B8%9D%E5%90%9B%EF%BC%9A%E4%B8%80%E5%80%8B%E6%95%97%E8%BB%8D%E4%B9%8B%E5%B0%87%E5%A6%82%E4%BD%95%E6%88%90%E7%82%BA%E5%8F%B0%E7%81%A3%E7%9A%84%E8%90%AC%E8%83%BD%E4%B9%8B%E7%A5%9E",
    "desc": "三國武將關羽兵敗被斬首，卻在台灣演化出全球獨有的「恩主公」信仰體系——而全台最繁忙的關帝廟，連一炷香都不讓你燒。",
    "city": "台北"
  },
  {
    "title": "台灣中小企業與隱形冠軍：171萬家平凡無奇企業撐起的經濟奇蹟",
    "lat": 24.073944,
    "lng": 120.546945,
    "category": "economy",
    "region": "central",
    "link": "/economy/%E5%8F%B0%E7%81%A3%E4%B8%AD%E5%B0%8F%E4%BC%81%E6%A5%AD%E8%88%87%E9%9A%B1%E5%BD%A2%E5%86%A0%E8%BB%8D%EF%BC%9A171%E8%90%AC%E5%AE%B6%E5%B9%B3%E5%87%A1%E7%84%A1%E5%A5%87%E4%BC%81%E6%A5%AD%E6%92%90%E8%B5%B7%E7%9A%84%E7%B6%93%E6%BF%9F%E5%A5%87%E8%B9%9F",
    "desc": "真正支撐台灣經濟的不是護國神山，而是171萬家看似平凡、卻創造79%就業機會的隱形冠軍。從1960年代黑手師傅起家，到今日掌控全球利基市場的精密製造王國。",
    "city": "彰化"
  },
  {
    "title": "中鋼：鐵頭部長與十大建設的鋼鐵傳奇",
    "lat": 22.629561,
    "lng": 120.298745,
    "category": "economy",
    "region": "south",
    "link": "/economy/%E4%B8%AD%E9%8B%BC%EF%BC%9A%E9%90%B5%E9%A0%AD%E9%83%A8%E9%95%B7%E8%88%87%E5%8D%81%E5%A4%A7%E5%BB%BA%E8%A8%AD%E7%9A%84%E9%8B%BC%E9%90%B5%E5%82%B3%E5%A5%87",
    "desc": "從趙耀東歐美談判智取技術，到高雄小港升起的第一縷白煙，中鋼用50年打造台灣重工業脊樑，是十大建設最成功的明珠",
    "city": "高雄"
  },
  {
    "title": "台泥：台灣第一上市公司的綠色轉型傳奇",
    "lat": 22.993901,
    "lng": 120.16726,
    "category": "economy",
    "region": "south",
    "link": "/economy/%E5%8F%B0%E6%B3%A5%EF%BC%9A%E5%8F%B0%E7%81%A3%E7%AC%AC%E4%B8%80%E4%B8%8A%E5%B8%82%E5%85%AC%E5%8F%B8%E7%9A%84%E7%B6%A0%E8%89%B2%E8%BD%89%E5%9E%8B%E5%82%B3%E5%A5%87",
    "desc": "1962年台灣證交所為它而生，股票代號1101象徵台股起源。從辜家三代經營76年，台泥用一座座水泥窯見證台灣建設奇蹟，如今轉型綠色企業迎戰碳中和時代",
    "city": "台南"
  },
  {
    "title": "台灣企業：台積電",
    "lat": 24.811516,
    "lng": 120.968017,
    "category": "economy",
    "region": "north",
    "link": "/economy/%E5%8F%B0%E7%81%A3%E4%BC%81%E6%A5%AD%EF%BC%9A%E5%8F%B0%E7%A9%8D%E9%9B%BB",
    "desc": "一個 56 歲的人在 1987 年創辦了一種「全世界沒人做過」的公司，然後它變成了地球上最重要的工廠",
    "city": "新竹"
  },
  {
    "title": "奇美實業：許文龍的壓克力王國與博物館夢想",
    "lat": 22.935,
    "lng": 120.226,
    "category": "economy",
    "region": "south",
    "link": "/art/當代藝術",
    "desc": "從1960年台南仁德小工廠起步，許文龍用一生打造亞洲最大ABS材料王國，更創建奇美博物館回饋社會。證明台灣企業可以兼顧商業成功與人文關懷",
    "city": "台南"
  },
  {
    "title": "宏碁集團 (Acer) - PC 產業的變革先驅",
    "lat": 24.986019,
    "lng": 121.293482,
    "category": "economy",
    "region": "north",
    "link": "/economy/%E5%AE%8F%E7%A2%81%E9%9B%86%E5%9C%98%20(Acer)%20-%20PC%20%E7%94%A2%E6%A5%AD%E7%9A%84%E8%AE%8A%E9%9D%A9%E5%85%88%E9%A9%85",
    "desc": "從台灣桃園起家的個人電腦先驅，創造「多品牌、多通路」商業模式，成為全球 PC 產業的變革引擎",
    "city": "桃園"
  },
  {
    "title": "台灣企業：巨大機械",
    "lat": 25.02933,
    "lng": 121.567282,
    "category": "economy",
    "region": "north",
    "link": "/economy/%E5%8F%B0%E7%81%A3%E4%BC%81%E6%A5%AD%EF%BC%9A%E5%B7%A8%E5%A4%A7%E6%A9%9F%E6%A2%B0",
    "desc": "從被美國大廠拋棄的代工奴隸，到制定全球自行車技術標準的隱形帝國",
    "city": "台北"
  },
  {
    "title": "台灣企業：廣達電腦",
    "lat": 25.028052,
    "lng": 121.563515,
    "category": "economy",
    "region": "north",
    "link": "/economy/%E5%8F%B0%E7%81%A3%E4%BC%81%E6%A5%AD%EF%BC%9A%E5%BB%A3%E9%81%94%E9%9B%BB%E8%85%A6",
    "desc": "從工廠火災到全球筆電王，林百里如何建造AI時代的新帝國？",
    "city": "台北"
  },
  {
    "title": "台灣企業：日月光半導體",
    "lat": 22.620219,
    "lng": 120.29765,
    "category": "economy",
    "region": "south",
    "link": "/economy/%E5%8F%B0%E7%81%A3%E4%BC%81%E6%A5%AD%EF%BC%9A%E6%97%A5%E6%9C%88%E5%85%89%E5%8D%8A%E5%B0%8E%E9%AB%94",
    "desc": "全球第一大封測廠，建設公司老闆為何轉戰半導體？",
    "city": "高雄"
  },
  {
    "title": "台灣企業：玉山金控",
    "lat": 23.47,
    "lng": 120.957,
    "category": "economy",
    "region": "central",
    "link": "/economy/%E5%8F%B0%E7%81%A3%E4%BC%81%E6%A5%AD%EF%BC%9A%E7%8E%89%E5%B1%B1%E9%87%91%E6%8E%A7",
    "desc": "從信用卡專業銀行到數位金融先鋒，43歲最年輕金控總經理的突破故事",
    "city": "南投"
  },
  {
    "title": "遠東集團：從上海紡織廠到台灣最多元化商業帝國",
    "lat": 25.012,
    "lng": 121.465,
    "category": "economy",
    "region": "north",
    "link": "/economy/%E9%81%A0%E6%9D%B1%E9%9B%86%E5%9C%98%EF%BC%9A%E5%BE%9E%E4%B8%8A%E6%B5%B7%E7%B4%A1%E7%B9%94%E5%BB%A0%E5%88%B0%E5%8F%B0%E7%81%A3%E6%9C%80%E5%A4%9A%E5%85%83%E5%8C%96%E5%95%86%E6%A5%AD%E5%B8%9D%E5%9C%8B",
    "desc": "87年前上海的一間小紡織廠，如何演變成跨越十大產業、資產逾3兆的台灣商業帝國？遠東集團的發展史，見證了台商從榮耀到政治風險的完整軌跡",
    "city": "新北"
  },
  {
    "title": "台灣企業：長春石化",
    "lat": 22.999,
    "lng": 120.227,
    "category": "economy",
    "region": "south",
    "link": "/economy/%E5%8F%B0%E7%81%A3%E4%BC%81%E6%A5%AD%EF%BC%9A%E9%95%B7%E6%98%A5%E7%9F%B3%E5%8C%96",
    "desc": "1949年台南小工廠到全球化工巨頭，「不上市不借錢」的隱形冠軍故事",
    "city": "台南"
  },
  {
    "title": "夜市經濟學：一場沒有品牌的商業奇蹟",
    "lat": 24.179,
    "lng": 120.647,
    "category": "economy",
    "region": "central",
    "link": "/economy/%E5%A4%9C%E5%B8%82%E7%B6%93%E6%BF%9F%E5%AD%B8%EF%BC%9A%E4%B8%80%E5%A0%B4%E6%B2%92%E6%9C%89%E5%93%81%E7%89%8C%E7%9A%84%E5%95%86%E6%A5%AD%E5%A5%87%E8%B9%9F",
    "desc": "探索台灣夜市如何在沒有品牌、裝潢和固定地點的情況下，創造年產值近4000億的經濟奇蹟",
    "city": "台中"
  },
  {
    "title": "經濟奇蹟",
    "lat": 22.633816,
    "lng": 120.296188,
    "category": "economy",
    "region": "south",
    "link": "/economy/%E7%B6%93%E6%BF%9F%E5%A5%87%E8%B9%9F",
    "desc": "1952年，台灣人均GDP只有196美元，比海地還窮。40年後，台灣成為「亞洲四小龍」之首，人均GDP超過1萬美元。但這個「奇蹟」的代價是什麼？當我們讚美台灣錢淹腳目的年代時，很少人談起那些在加工出口區裡每天工作12小時的女工，和那些把一生積蓄押在小工廠裡的老闆們。",
    "city": "高雄"
  },
  {
    "title": "台灣咖啡產業",
    "lat": 23.508304,
    "lng": 120.706242,
    "category": "food",
    "region": "south",
    "link": "/food/%E5%8F%B0%E7%81%A3%E5%92%96%E5%95%A1%E7%94%A2%E6%A5%AD",
    "desc": "從德記洋行1884年的100株苗木到2024年首屆CoE卓越盃，一個島嶼如何在140年間打造出年進口4.3萬公噸的咖啡王國",
    "city": "嘉義"
  },
  {
    "title": "台灣小吃",
    "lat": 25.088,
    "lng": 121.524,
    "category": "food",
    "region": "north",
    "link": "/food/%E5%8F%B0%E7%81%A3%E5%B0%8F%E5%90%83",
    "desc": "1987年春水堂的一個失誤，讓珍珠奶茶走進60國市場。台灣小吃從清代移民的生存工具，到今天23.3萬個攤位撐起的4000億產業：它的成功方程式不是精緻化，而是那種「管它的，先試試看」的草根勇氣。",
    "city": "台北"
  },
  {
    "title": "台灣手路菜：正在消失的味覺記憶",
    "lat": 23.486151,
    "lng": 120.446309,
    "category": "food",
    "region": "south",
    "link": "/food/%E5%8F%B0%E7%81%A3%E6%89%8B%E8%B7%AF%E8%8F%9C%EF%BC%9A%E6%AD%A3%E5%9C%A8%E6%B6%88%E5%A4%B1%E7%9A%84%E5%91%B3%E8%A6%BA%E8%A8%98%E6%86%B6",
    "desc": "從嘉義薄荷雞到菜尾湯，阿嬤的拿手好菜承載著家族記憶，卻正在時代變遷中慢慢失傳",
    "city": "嘉義"
  },
  {
    "title": "台灣新住民美食融合",
    "lat": 25.037785,
    "lng": 121.569507,
    "category": "food",
    "region": "north",
    "link": "/food/%E5%8F%B0%E7%81%A3%E6%96%B0%E4%BD%8F%E6%B0%91%E7%BE%8E%E9%A3%9F%E8%9E%8D%E5%90%88",
    "desc": "當泰式酸辣遇上台灣甜鹹、當越南河粉邂逅台式滷味、當印尼香料擁抱本土食材，一場跨越國界的味覺革命正在台灣悄然發生。新住民帶來的不只是故鄉的料理，更是豐富台灣美食文化的全新可能。",
    "city": "台北"
  },
  {
    "title": "台灣海鮮文化",
    "lat": 25.128,
    "lng": 121.739,
    "category": "food",
    "region": "north",
    "link": "/food/%E5%8F%B0%E7%81%A3%E6%B5%B7%E9%AE%AE%E6%96%87%E5%8C%96",
    "desc": "漁港新鮮直送、海鮮餐廳文化、蚵仔煎等海味料理，展現台灣四面環海的島嶼特色與豐富的海鮮飲食傳統",
    "city": "基隆"
  },
  {
    "title": "台灣米其林：星光下的代價與重新定義",
    "lat": 25.026648,
    "lng": 121.563563,
    "category": "food",
    "region": "north",
    "link": "/food/%E5%8F%B0%E7%81%A3%E7%B1%B3%E5%85%B6%E6%9E%97%EF%BC%9A%E6%98%9F%E5%85%89%E4%B8%8B%E7%9A%84%E4%BB%A3%E5%83%B9%E8%88%87%E9%87%8D%E6%96%B0%E5%AE%9A%E7%BE%A9",
    "desc": "2018 年米其林登陸台灣，表面上是國際認證的榮耀，實際上重新劃分了餐飲業的生存規則——「幾乎夠格」的餐廳，反而成了最大受害者。",
    "city": "台北"
  },
  {
    "title": "台灣米食文化",
    "lat": 24.797672,
    "lng": 120.974774,
    "category": "food",
    "region": "north",
    "link": "/food/%E5%8F%B0%E7%81%A3%E7%B1%B3%E9%A3%9F%E6%96%87%E5%8C%96",
    "desc": "從年吃 85 公斤到 42 公斤：一個稻米島國的飲食革命與文化堅持",
    "city": "新竹"
  },
  {
    "title": "台灣辦桌文化",
    "lat": 22.623508,
    "lng": 120.297973,
    "category": "food",
    "region": "south",
    "link": "/food/%E5%8F%B0%E7%81%A3%E8%BE%A6%E6%A1%8C%E6%96%87%E5%8C%96",
    "desc": "一個清朝就存在的產業，在台灣最貧瘠的土地上養出全球密度最高的總鋪師。疫情讓訂單蒸發九成，但真正讓行家憂心的，從來不是失業——是失傳。",
    "city": "高雄"
  },
  {
    "title": "夜市文化",
    "lat": 25.084131,
    "lng": 121.522412,
    "category": "food",
    "region": "north",
    "link": "/food/夜市文化",
    "desc": "164個列管夜市、台南平均3.8萬人擁有一個夜市，從廟埕到國際觀光景點",
    "city": "台北"
  },
  {
    "title": "客家飲食文化",
    "lat": 24.810841,
    "lng": 120.974066,
    "category": "food",
    "region": "north",
    "link": "/food/%E5%AE%A2%E5%AE%B6%E9%A3%B2%E9%A3%9F%E6%96%87%E5%8C%96",
    "desc": "客家人豐富多元的飲食文化，從擂茶的醇厚香味到野薑花粽的山林風情，展現客家族群勤儉持家與就地取材的生活智慧",
    "city": "新竹"
  },
  {
    "title": "牛肉麵",
    "lat": 25.034628,
    "lng": 121.568612,
    "category": "food",
    "region": "north",
    "link": "/food/%E7%89%9B%E8%82%89%E9%BA%B5",
    "desc": "從外省移民鄉愁到台灣國民美食，牛肉麵的文化融合與全球飄香",
    "city": "台北"
  },
  {
    "title": "珍珠奶茶",
    "lat": 24.148,
    "lng": 120.674,
    "category": "food",
    "region": "central",
    "link": "/food/台灣茶文化",
    "desc": "1987 年台中的一次員工會議，一個不經意的動作，讓一杯飲料征服了全球。珍珠奶茶的起源爭議、文化政治、與一杯 500 大卡的健康辯論。",
    "city": "台中"
  },
  {
    "title": "在搖晃的島嶼上，他們蓋了一座能飛的塔",
    "lat": 25.035204,
    "lng": 121.561642,
    "category": "geography",
    "region": "north",
    "link": "/geography/%E5%9C%A8%E6%90%96%E6%99%83%E7%9A%84%E5%B3%B6%E5%B6%BC%E4%B8%8A%EF%BC%8C%E4%BB%96%E5%80%91%E8%93%8B%E4%BA%86%E4%B8%80%E5%BA%A7%E8%83%BD%E9%A3%9B%E7%9A%84%E5%A1%94",
    "desc": "距離活動斷層僅 200 公尺，台灣人偏要在最不穩定的土地上建出世界最高樓——然後有個瘋子花 91 分鐘徒手爬了上去。",
    "city": "台北"
  },
  {
    "title": "台灣五大地形與地理結構：從山脈到平原的島嶼風貌",
    "lat": 23.470705,
    "lng": 120.960001,
    "category": "geography",
    "region": "central",
    "link": "/geography/%E5%8F%B0%E7%81%A3%E4%BA%94%E5%A4%A7%E5%9C%B0%E5%BD%A2%E8%88%87%E5%9C%B0%E7%90%86%E7%B5%90%E6%A7%8B%EF%BC%9A%E5%BE%9E%E5%B1%B1%E8%84%88%E5%88%B0%E5%B9%B3%E5%8E%9F%E7%9A%84%E5%B3%B6%E5%B6%BC%E9%A2%A8%E8%B2%8C",
    "desc": "探索台灣獨特的地理結構，從中央山脈到西部平原，認識這座島嶼的地形多樣性",
    "city": "南投"
  },
  {
    "title": "台灣交通運輸網路",
    "lat": 25.036515,
    "lng": 121.557138,
    "category": "geography",
    "region": "north",
    "link": "/geography/%E5%8F%B0%E7%81%A3%E4%BA%A4%E9%80%9A%E9%81%8B%E8%BC%B8%E7%B6%B2%E8%B7%AF",
    "desc": "高鐵、捷運、公路、航空，編織移動台灣的立體交通網路",
    "city": "台北"
  },
  {
    "title": "台灣國家風景區系統",
    "lat": 23.863,
    "lng": 120.917,
    "category": "geography",
    "region": "central",
    "link": "/geography/%E5%8F%B0%E7%81%A3%E5%9C%8B%E5%AE%B6%E9%A2%A8%E6%99%AF%E5%8D%80%E7%B3%BB%E7%B5%B1",
    "desc": "一個「國家級」標籤下的觀光優先實驗：13處風景區如何在保育與開發間走鋼索",
    "city": "南投"
  },
  {
    "title": "台灣島嶼地理特色與形成",
    "lat": 23.506991,
    "lng": 120.707972,
    "category": "geography",
    "region": "south",
    "link": "/geography/%E5%8F%B0%E7%81%A3%E5%B3%B6%E5%B6%BC%E5%9C%B0%E7%90%86%E7%89%B9%E8%89%B2%E8%88%87%E5%BD%A2%E6%88%90",
    "desc": "探索台灣獨特的島嶼地理特色，從板塊運動到地形結構，了解福爾摩沙島的自然奧秘",
    "city": "嘉義"
  },
  {
    "title": "台灣板塊運動與地震活動",
    "lat": 25.027703,
    "lng": 121.566592,
    "category": "geography",
    "region": "north",
    "link": "/geography/%E5%8F%B0%E7%81%A3%E6%9D%BF%E5%A1%8A%E9%81%8B%E5%8B%95%E8%88%87%E5%9C%B0%E9%9C%87%E6%B4%BB%E5%8B%95",
    "desc": "探討台灣位於歐亞板塊與菲律賓海板塊交界的地質特性，以及造成頻繁地震活動的原因",
    "city": "台北"
  },
  {
    "title": "台灣水庫與水資源管理",
    "lat": 25.028643,
    "lng": 121.565794,
    "category": "geography",
    "region": "north",
    "link": "/geography/%E5%8F%B0%E7%81%A3%E6%B0%B4%E5%BA%AB%E8%88%87%E6%B0%B4%E8%B3%87%E6%BA%90%E7%AE%A1%E7%90%86",
    "desc": "從缺水危機到水庫淤積，台灣水資源的挑戰與南北分配不均的困境",
    "city": "台北"
  },
  {
    "title": "台灣河川系統與水文特色：短急流與季節變遷的水文地理",
    "lat": 25.17,
    "lng": 121.44,
    "category": "geography",
    "region": "north",
    "link": "/geography/%E5%8F%B0%E7%81%A3%E6%B2%B3%E5%B7%9D%E7%B3%BB%E7%B5%B1%E8%88%87%E6%B0%B4%E6%96%87%E7%89%B9%E8%89%B2%EF%BC%9A%E7%9F%AD%E6%80%A5%E6%B5%81%E8%88%87%E5%AD%A3%E7%AF%80%E8%AE%8A%E9%81%B7%E7%9A%84%E6%B0%B4%E6%96%87%E5%9C%B0%E7%90%86",
    "desc": "探索台灣獨特的河川系統，從濁水溪到高屏溪，了解島嶼地形如何塑造台灣的水文特色",
    "city": "新北"
  },
  {
    "title": "台灣海岸地形與海洋地景",
    "lat": 23.469496,
    "lng": 120.951584,
    "category": "geography",
    "region": "central",
    "link": "/geography/%E5%8F%B0%E7%81%A3%E6%B5%B7%E5%B2%B8%E5%9C%B0%E5%BD%A2%E8%88%87%E6%B5%B7%E6%B4%8B%E5%9C%B0%E6%99%AF",
    "desc": "在地球上，很少有地方能讓你從近4,000公尺的山頂出發，不到150公里就墜入7,500公尺深的海溝。台灣可以。這座島嶼的海岸線，是一場仍在進行的車禍現場——美到令人窒息。",
    "city": "南投"
  },
  {
    "title": "台灣溫泉地景",
    "lat": 22.695,
    "lng": 121.032,
    "category": "geography",
    "region": "east",
    "link": "/geography/%E5%8F%B0%E7%81%A3%E6%BA%AB%E6%B3%89%E5%9C%B0%E6%99%AF",
    "desc": "從『女巫湯』到全球前15溫泉王國，板塊碰撞如何煮出這座島的療癒密碼",
    "city": "台東"
  },
  {
    "title": "台灣生態多樣性熱點",
    "lat": 23.472983,
    "lng": 120.960285,
    "category": "geography",
    "region": "central",
    "link": "/geography/%E5%8F%B0%E7%81%A3%E7%94%9F%E6%85%8B%E5%A4%9A%E6%A8%A3%E6%80%A7%E7%86%B1%E9%BB%9E",
    "desc": "3.6 萬平方公里島嶼擠下 5.9 萬種生物，密度是全球平均值的 100 倍",
    "city": "南投"
  },
  {
    "title": "台灣農業地景與產業分布",
    "lat": 24.074242,
    "lng": 120.546628,
    "category": "geography",
    "region": "central",
    "link": "/geography/%E5%8F%B0%E7%81%A3%E8%BE%B2%E6%A5%AD%E5%9C%B0%E6%99%AF%E8%88%87%E7%94%A2%E6%A5%AD%E5%88%86%E5%B8%83",
    "desc": "從北到南的農業地景變化，彰顯台灣從「台灣穀倉」到「精緻農業」的轉型之路",
    "city": "彰化"
  },
  {
    "title": "台灣都市發展與城鄉差距",
    "lat": 25.025702,
    "lng": 121.566798,
    "category": "geography",
    "region": "north",
    "link": "/geography/%E5%8F%B0%E7%81%A3%E9%83%BD%E5%B8%82%E7%99%BC%E5%B1%95%E8%88%87%E5%9F%8E%E9%84%89%E5%B7%AE%E8%B7%9D",
    "desc": "70年從農業島變都市島，六都集中7成人口的光與影：繁榮台中vs凋零雲林的殘酷對比",
    "city": "台北"
  },
  {
    "title": "地形與地質",
    "lat": 23.462836,
    "lng": 120.957226,
    "category": "geography",
    "region": "central",
    "link": "/geography/%E5%9C%B0%E5%BD%A2%E8%88%87%E5%9C%B0%E8%B3%AA",
    "desc": "600萬年的島嶼，藏著2億年的古老記憶 — 全球最年輕造山帶與最劇烈板塊碰撞的奇蹟",
    "city": "南投"
  },
  {
    "title": "城市特色與區域文化",
    "lat": 25.040847,
    "lng": 121.572482,
    "category": "geography",
    "region": "north",
    "link": "/geography/%E5%9F%8E%E5%B8%82%E7%89%B9%E8%89%B2%E8%88%87%E5%8D%80%E5%9F%9F%E6%96%87%E5%8C%96",
    "desc": "從台北的國際都會到台南的古都風情，台灣各城市如何形塑獨特的地方認同",
    "city": "台北"
  },
  {
    "title": "離島與海洋文化：從石滬密度世界第一到飛魚季生態法律",
    "lat": 23.577565,
    "lng": 119.576489,
    "category": "geography",
    "region": "islands",
    "link": "/geography/%E9%9B%A2%E5%B3%B6%E8%88%87%E6%B5%B7%E6%B4%8B%E6%96%87%E5%8C%96%EF%BC%9A%E5%BE%9E%E7%9F%B3%E6%BB%AC%E5%AF%86%E5%BA%A6%E4%B8%96%E7%95%8C%E7%AC%AC%E4%B8%80%E5%88%B0%E9%A3%9B%E9%AD%9A%E5%AD%A3%E7%94%9F%E6%85%8B%E6%B3%95%E5%BE%8B",
    "desc": "全世界石滬不到600座，澎湖就有574座。一個專門抓飛魚的島嶼民族，把禁忌變成了最精密的海洋資源管理系統",
    "city": "澎湖"
  },
  {
    "title": "二二八事件",
    "lat": 23.483192,
    "lng": 120.444541,
    "category": "history",
    "region": "south",
    "link": "/history/%E4%BA%8C%E4%BA%8C%E5%85%AB%E4%BA%8B%E4%BB%B6",
    "desc": "一個寡婦的私菸攤，如何點燃一座島嶼38年的沉默——1947年改變台灣命運的十天",
    "city": "嘉義"
  },
  {
    "title": "台海危機與兩岸關係發展",
    "lat": 24.449,
    "lng": 118.377,
    "category": "history",
    "region": "islands",
    "link": "/history/%E5%8F%B0%E6%B5%B7%E5%8D%B1%E6%A9%9F%E8%88%87%E5%85%A9%E5%B2%B8%E9%97%9C%E4%BF%82%E7%99%BC%E5%B1%95",
    "desc": "從金門阿嬤的砲彈記憶到台北年輕人的佛系日常，七十年台海危機如何塑造了台灣人的集體心理",
    "city": "金門"
  },
  {
    "title": "台灣原住民族歷史與正名運動",
    "lat": 23.503332,
    "lng": 120.698686,
    "category": "history",
    "region": "south",
    "link": "/history/%E5%8F%B0%E7%81%A3%E5%8E%9F%E4%BD%8F%E6%B0%91%E6%97%8F%E6%AD%B7%E5%8F%B2%E8%88%87%E6%AD%A3%E5%90%8D%E9%81%8B%E5%8B%95",
    "desc": "1987年，一個19歲的鄒族青年在台北刑場被槍決。他的死，點燃了正名運動最初的火。",
    "city": "嘉義"
  },
  {
    "title": "台灣森林開發史：從資源榨取到國土保安的世紀轉向",
    "lat": 23.502785,
    "lng": 120.698376,
    "category": "history",
    "region": "south",
    "link": "/history/%E5%8F%B0%E7%81%A3%E6%A3%AE%E6%9E%97%E9%96%8B%E7%99%BC%E5%8F%B2%EF%BC%9A%E5%BE%9E%E8%B3%87%E6%BA%90%E6%A6%A8%E5%8F%96%E5%88%B0%E5%9C%8B%E5%9C%9F%E4%BF%9D%E5%AE%89%E7%9A%84%E4%B8%96%E7%B4%80%E8%BD%89%E5%90%91",
    "desc": "從清領時期的樟腦煙雲，到日治時期的鋼軌鳴響，再到戰後震撼山壑的大伐木時代。本文梳理台灣森林開發政策背後的全球地緣政治邏輯，並以資料釐清百年林業的真實真相。",
    "city": "嘉義"
  },
  {
    "title": "台灣民主轉型：從威權到自由的寧靜革命",
    "lat": 25.036,
    "lng": 121.522,
    "category": "history",
    "region": "north",
    "link": "/history/%E5%8F%B0%E7%81%A3%E6%B0%91%E4%B8%BB%E8%BD%89%E5%9E%8B%EF%BC%9A%E5%BE%9E%E5%A8%81%E6%AC%8A%E5%88%B0%E8%87%AA%E7%94%B1%E7%9A%84%E5%AF%A7%E9%9D%9C%E9%9D%A9%E5%91%BD",
    "desc": "一個島嶼如何在不流血的情況下，從38年戒嚴走向亞洲最自由的民主。這不是被給予的恩惠，而是一代又一代人用勇氣換來的自由。",
    "city": "台北"
  },
  {
    "title": "台灣海洋貿易史",
    "lat": 22.998068,
    "lng": 120.161307,
    "category": "history",
    "region": "south",
    "link": "/history/%E5%8F%B0%E7%81%A3%E6%B5%B7%E6%B4%8B%E8%B2%BF%E6%98%93%E5%8F%B2",
    "desc": "大航海時代的台灣，從國際貿易中心到海盜王國的興衰傳奇",
    "city": "台南"
  },
  {
    "title": "台灣眷村歷史",
    "lat": 25.027309,
    "lng": 121.571324,
    "category": "history",
    "region": "north",
    "link": "/history/%E5%8F%B0%E7%81%A3%E7%9C%B7%E6%9D%91%E6%AD%B7%E5%8F%B2",
    "desc": "從緬甸孤軍到竹籬笆王國，120萬大遷徙如何重新定義「家」",
    "city": "台北"
  },
  {
    "title": "台灣鐵道史",
    "lat": 24.152083,
    "lng": 120.672797,
    "category": "history",
    "region": "central",
    "link": "/history/%E5%8F%B0%E7%81%A3%E9%90%B5%E9%81%93%E5%8F%B2",
    "desc": "一條被日本人罵是「肺病鐵道」的爛路，如何在一百多年間變成每天載運二十萬人的高速動脈",
    "city": "台中"
  },
  {
    "title": "國民政府遷台與戰後重建",
    "lat": 25.035618,
    "lng": 121.564448,
    "category": "history",
    "region": "north",
    "link": "/history/%E5%9C%8B%E6%B0%91%E6%94%BF%E5%BA%9C%E9%81%B7%E5%8F%B0%E8%88%87%E6%88%B0%E5%BE%8C%E9%87%8D%E5%BB%BA",
    "desc": "探討1949年國民政府遷台的歷史背景、過程與影響，以及戰後台灣的政治、經濟與社會重建",
    "city": "台北"
  },
  {
    "title": "日治時期",
    "lat": 22.63168,
    "lng": 120.304783,
    "category": "history",
    "region": "south",
    "link": "/history/%E6%97%A5%E6%B2%BB%E6%99%82%E6%9C%9F",
    "desc": "1895-1945年日本統治台灣50年，帶來全面現代化建設與制度化管理，同時實施同化政策，深刻影響台灣社會發展",
    "city": "高雄"
  },
  {
    "title": "民主化",
    "lat": 22.626517,
    "lng": 120.304023,
    "category": "history",
    "region": "south",
    "link": "/history/%E6%B0%91%E4%B8%BB%E5%8C%96",
    "desc": "1980年3月18日，高雄軍事法庭上，施明德放棄了六萬字答辯書，改口要求法官判他死刑。同一場審判中，替被告辯護的年輕律師陳水扁、謝長廷、蘇貞昌，二十年後全部當上了總統或行政院長。一場本該殺雞儆猴的審判，意外製造了台灣下一個世代的政治領袖。",
    "city": "高雄"
  },
  {
    "title": "淡江中學：一座校園，如何濃縮台灣近代教育史",
    "lat": 25.172364,
    "lng": 121.434997,
    "category": "history",
    "region": "north",
    "link": "/history/%E6%B7%A1%E6%B1%9F%E4%B8%AD%E5%AD%B8%EF%BC%9A%E4%B8%80%E5%BA%A7%E6%A0%A1%E5%9C%92%EF%BC%8C%E5%A6%82%E4%BD%95%E6%BF%83%E7%B8%AE%E5%8F%B0%E7%81%A3%E8%BF%91%E4%BB%A3%E6%95%99%E8%82%B2%E5%8F%B2",
    "desc": "淡江中學最值得寫的，不是它夠老，而是它把宣教、女子教育與殖民體制的拉扯，都留在同一座校園裡。",
    "city": "新北"
  },
  {
    "title": "清治時期",
    "lat": 25.172737,
    "lng": 121.441141,
    "category": "history",
    "region": "north",
    "link": "/history/%E6%B8%85%E6%B2%BB%E6%99%82%E6%9C%9F",
    "desc": "1683-1895年清朝統治台灣約212年，從消極治理到積極建設，奠定現代台灣行政區劃與漢人社會基礎",
    "city": "新北"
  },
  {
    "title": "擎天崗的19頭牛：從源興牛到台南牛肉湯，一座島嶼的肉牛突圍",
    "lat": 23.003003,
    "lng": 120.232274,
    "category": "history",
    "region": "south",
    "link": "/history/%E6%93%8E%E5%A4%A9%E5%B4%97%E7%9A%8419%E9%A0%AD%E7%89%9B%EF%BC%9A%E5%BE%9E%E6%BA%90%E8%88%88%E7%89%9B%E5%88%B0%E5%8F%B0%E5%8D%97%E7%89%9B%E8%82%89%E6%B9%AF%EF%BC%8C%E4%B8%80%E5%BA%A7%E5%B3%B6%E5%B6%BC%E7%9A%84%E8%82%89%E7%89%9B%E7%AA%81%E5%9C%8D",
    "desc": "台灣牛肉自給率僅4.6%，卻在2024年誕生全國第一個民間認證牛品種。源興牛的故事，是一個94歲的老人、19頭野生黑牛、和一碗凌晨的溫體湯共同寫成的產業突圍劇本。",
    "city": "台南"
  },
  {
    "title": "荷西明鄭時期",
    "lat": 25.172434,
    "lng": 121.441098,
    "category": "history",
    "region": "north",
    "link": "/history/%E8%8D%B7%E8%A5%BF%E6%98%8E%E9%84%AD%E6%99%82%E6%9C%9F",
    "desc": "台灣歷史上首次有系統性的殖民統治，從荷蘭人建立熱蘭遮城到鄭成功開台，奠定漢人移居與政治制度基礎",
    "city": "新北"
  },
  {
    "title": "台灣交通系統",
    "lat": 25.039444,
    "lng": 121.558142,
    "category": "lifestyle",
    "region": "north",
    "link": "/lifestyle/%E5%8F%B0%E7%81%A3%E4%BA%A4%E9%80%9A%E7%B3%BB%E7%B5%B1",
    "desc": "高鐵 90 分鐘縱貫南北，捷運密織都市血脈，機車穿梭巷弄間",
    "city": "台北"
  },
  {
    "title": "台灣便利商店文化",
    "lat": 25.037618,
    "lng": 121.567896,
    "category": "lifestyle",
    "region": "north",
    "link": "/lifestyle/%E5%8F%B0%E7%81%A3%E4%BE%BF%E5%88%A9%E5%95%86%E5%BA%97%E6%96%87%E5%8C%96",
    "desc": "密度世界第一的便利商店王國，7-11與全家的在地化創新，重新定義現代生活方式",
    "city": "台北"
  },
  {
    "title": "台灣公園與日常休閒",
    "lat": 25.039317,
    "lng": 121.565153,
    "category": "lifestyle",
    "region": "north",
    "link": "/lifestyle/%E5%8F%B0%E7%81%A3%E5%85%AC%E5%9C%92%E8%88%87%E6%97%A5%E5%B8%B8%E4%BC%91%E9%96%92",
    "desc": "從清晨太極到夜間散步——台灣公園作為跨世代社交場域的文化觀察",
    "city": "台北"
  },
  {
    "title": "台灣咖啡文化",
    "lat": 23.513385,
    "lng": 120.695911,
    "category": "lifestyle",
    "region": "south",
    "link": "/lifestyle/%E5%8F%B0%E7%81%A3%E5%92%96%E5%95%A1%E6%96%87%E5%8C%96",
    "desc": "獨立咖啡廳密度世界前三，從阿里山豆到咖啡廳辦公的島嶼咖啡學",
    "city": "嘉義"
  },
  {
    "title": "追垃圾車的島：台灣從垃圾危機到回收奇蹟",
    "lat": 25.039576,
    "lng": 121.562651,
    "category": "lifestyle",
    "region": "north",
    "link": "/lifestyle/%E8%BF%BD%E5%9E%83%E5%9C%BE%E8%BB%8A%E7%9A%84%E5%B3%B6%EF%BC%9A%E5%8F%B0%E7%81%A3%E5%BE%9E%E5%9E%83%E5%9C%BE%E5%8D%B1%E6%A9%9F%E5%88%B0%E5%9B%9E%E6%94%B6%E5%A5%87%E8%B9%9F",
    "desc": "一個1990年代有400座快滿的掩埋場、被國際媒體稱為「垃圾島」的地方，用貝多芬的音樂讓2,300萬人每天追垃圾車，30年後資源回收率超越多數歐洲國家",
    "city": "台北"
  },
  {
    "title": "當古典音樂變成垃圾車廣告歌：台灣最浪漫的環保革命",
    "lat": 25.036181,
    "lng": 121.5726,
    "category": "lifestyle",
    "region": "north",
    "link": "/lifestyle/%E7%95%B6%E5%8F%A4%E5%85%B8%E9%9F%B3%E6%A8%82%E8%AE%8A%E6%88%90%E5%9E%83%E5%9C%BE%E8%BB%8A%E5%BB%A3%E5%91%8A%E6%AD%8C%EF%BC%9A%E5%8F%B0%E7%81%A3%E6%9C%80%E6%B5%AA%E6%BC%AB%E7%9A%84%E7%92%B0%E4%BF%9D%E9%9D%A9%E5%91%BD",
    "desc": "外國人聽到垃圾車播貝多芬的震驚表情，背後是台灣從「垃圾島」蛻變成環保模範的神奇故事",
    "city": "台北"
  },
  {
    "title": "台灣捷運發展史：一部用血與錢寫成的城市進化論",
    "lat": 25.038321,
    "lng": 121.570059,
    "category": "lifestyle",
    "region": "north",
    "link": "/lifestyle/%E5%8F%B0%E7%81%A3%E6%8D%B7%E9%81%8B%E7%99%BC%E5%B1%95%E5%8F%B2%EF%BC%9A%E4%B8%80%E9%83%A8%E7%94%A8%E8%A1%80%E8%88%87%E9%8C%A2%E5%AF%AB%E6%88%90%E7%9A%84%E5%9F%8E%E5%B8%82%E9%80%B2%E5%8C%96%E8%AB%96",
    "desc": "209 噸鋼梁從天而降奪走 4 條人命，16.4 億賠款，台北捷運本業至今仍在虧錢——全台捷運背後的真實代價",
    "city": "台北"
  },
  {
    "title": "台灣教育制度：從聯考地獄到多元迷宮的島嶼實驗",
    "lat": 25.033499,
    "lng": 121.557814,
    "category": "lifestyle",
    "region": "north",
    "link": "/lifestyle/%E5%8F%B0%E7%81%A3%E6%95%99%E8%82%B2%E5%88%B6%E5%BA%A6%EF%BC%9A%E5%BE%9E%E8%81%AF%E8%80%83%E5%9C%B0%E7%8D%84%E5%88%B0%E5%A4%9A%E5%85%83%E8%BF%B7%E5%AE%AE%E7%9A%84%E5%B3%B6%E5%B6%BC%E5%AF%A6%E9%A9%97",
    "desc": "台灣花30年想破除聯考制度，結果最新的分科測驗讓重考班招生暴增一倍。一個島嶼如何在升學壓力與教育公平之間，反覆進行社會實驗？",
    "city": "台北"
  },
  {
    "title": "台灣機車文化",
    "lat": 25.039856,
    "lng": 121.559101,
    "category": "lifestyle",
    "region": "north",
    "link": "/lifestyle/%E5%8F%B0%E7%81%A3%E6%A9%9F%E8%BB%8A%E6%96%87%E5%8C%96",
    "desc": "全球機車密度最高的國家不是因為愛騎車——是因為沒有別的選擇。現在它意外成了電動二輪的全球實驗場。",
    "city": "台北"
  },
  {
    "title": "台灣騎樓文化與街景",
    "lat": 25.031795,
    "lng": 121.562228,
    "category": "lifestyle",
    "region": "north",
    "link": "/lifestyle/%E5%8F%B0%E7%81%A3%E9%A8%8E%E6%A8%93%E6%96%87%E5%8C%96%E8%88%87%E8%A1%97%E6%99%AF",
    "desc": "遮風避雨的生活廊道，機車、攤販與人情味交織的台灣街頭記憶",
    "city": "台北"
  },
  {
    "title": "夜生活與KTV文化",
    "lat": 25.030963,
    "lng": 121.563635,
    "category": "lifestyle",
    "region": "north",
    "link": "/lifestyle/%E5%A4%9C%E7%94%9F%E6%B4%BB%E8%88%87KTV%E6%96%87%E5%8C%96",
    "desc": "從錢櫃包廂到深夜食堂，24 小時不打烊的島嶼夜生活",
    "city": "台北"
  },
  {
    "title": "宗教與民間信仰：從恐懼管理到信仰帝國",
    "lat": 25.038665,
    "lng": 121.557557,
    "category": "lifestyle",
    "region": "north",
    "link": "/lifestyle/%E5%AE%97%E6%95%99%E8%88%87%E6%B0%91%E9%96%93%E4%BF%A1%E4%BB%B0%EF%BC%9A%E5%BE%9E%E6%81%90%E6%87%BC%E7%AE%A1%E7%90%86%E5%88%B0%E4%BF%A1%E4%BB%B0%E5%B8%9D%E5%9C%8B",
    "desc": "台灣有全球最高廟宇密度，卻也是宗教自由世界第一——這套矛盾背後隱藏17世紀軍事移民的生存智慧",
    "city": "台北"
  },
  {
    "title": "小綠人：從交通號誌到國家符號的25年傳奇",
    "lat": 25.034605,
    "lng": 121.565317,
    "category": "lifestyle",
    "region": "north",
    "link": "/lifestyle/%E5%B0%8F%E7%B6%A0%E4%BA%BA%EF%BC%9A%E5%BE%9E%E4%BA%A4%E9%80%9A%E8%99%9F%E8%AA%8C%E5%88%B0%E5%9C%8B%E5%AE%B6%E7%AC%A6%E8%99%9F%E7%9A%8425%E5%B9%B4%E5%82%B3%E5%A5%87",
    "desc": "一位東京觀光客驚訝地停下腳步，目睹台北街頭的奇蹟——會跑步的紅綠燈。25年來，這個看似平凡的小綠人，如何從松智路的一盞燈，成為讓全世界為之驚艷的台灣文化符號？",
    "city": "台北"
  },
  {
    "title": "溫泉文化",
    "lat": 22.661,
    "lng": 121.497,
    "category": "lifestyle",
    "region": "east",
    "link": "/lifestyle/溫泉文化",
    "desc": "從軍事療養到世界三大泥泉：台灣意外成為溫泉王國的故事",
    "city": "台東"
  },
  {
    "title": "台灣原住民音樂傳統",
    "lat": 22.68253,
    "lng": 120.489599,
    "category": "music",
    "region": "south",
    "link": "/music/流行音樂與金曲獎",
    "desc": "探索台灣 16 族原住民豐富的音樂文化，從古調吟唱到傳統樂器，見證數千年文化傳承",
    "city": "屏東"
  },
  {
    "title": "台灣國樂：從移植到演化的島嶼音樂新物種",
    "lat": 25.03482,
    "lng": 121.562522,
    "category": "music",
    "region": "north",
    "link": "/music/流行音樂與金曲獎",
    "desc": "台灣國樂不只是中國民樂的分支，而是在島嶼環境下獨立演化的文化新物種，融合本土元素與創新實驗，形成獨特的音樂語言。",
    "city": "台北"
  },
  {
    "title": "台灣樂器製造業：從后里薩克斯風到全球音樂工廠",
    "lat": 23.868792,
    "lng": 120.913225,
    "category": "music",
    "region": "central",
    "link": "/music/流行音樂與金曲獎",
    "desc": "探索台灣樂器製造業的發展歷程，從后里薩克斯風的全球霸主地位到吉他代工王國，再到音樂盒製造的精密工藝，台灣如何從代工走向自有品牌",
    "city": "南投"
  },
  {
    "title": "台灣民歌運動",
    "lat": 25.029552,
    "lng": 121.568673,
    "category": "music",
    "region": "north",
    "link": "/music/%E5%8F%B0%E7%81%A3%E6%B0%91%E6%AD%8C%E9%81%8B%E5%8B%95",
    "desc": "從「唱自己的歌」到改變整個華語音樂圈——1970年代那場屬於年輕人的文化革命",
    "city": "台北"
  },
  {
    "title": "台灣獨立音樂：一間發不出薪水的唱片行，如何替一座島嶼打開耳朵",
    "lat": 25.039939,
    "lng": 121.565578,
    "category": "music",
    "region": "north",
    "link": "/music/流行音樂與金曲獎",
    "desc": "從水晶唱片負債三十萬頂下來的冒險，到草東沒有派對在咖啡店賣光首刷。台灣獨立音樂 35 年不是逆襲故事，是一群人堅持讓「沒被看見的聲音被聽見」的漫長賭局",
    "city": "台北"
  },
  {
    "title": "台灣電子音樂與派對文化：從地下 Rave 到國際舞台",
    "lat": 25.036016,
    "lng": 121.572603,
    "category": "music",
    "region": "north",
    "link": "/music/流行音樂與金曲獎",
    "desc": "從1990年代 Rave 派對文化到 Road to Ultra 電音節，台灣電子音樂如何從地下走向主流，孕育出國際級 DJ 與獨立電子廠牌",
    "city": "台北"
  },
  {
    "title": "台灣音樂祭文化：一座島嶼為什麼需要這麼多場戶外派對",
    "lat": 21.948,
    "lng": 120.803,
    "category": "music",
    "region": "south",
    "link": "/music/流行音樂與金曲獎",
    "desc": "從 1995 年墾丁沙灘上兩個美國人架起的舞台，到每年超過 50 場遍布全島的音樂祭。台灣的音樂祭密度可能是全世界最高，而開山鼻祖不是台灣人",
    "city": "屏東"
  },
  {
    "title": "台灣原住民生態智慧與環境保育",
    "lat": 23.992,
    "lng": 121.602,
    "category": "nature",
    "region": "east",
    "link": "/nature/%E5%8F%B0%E7%81%A3%E5%8E%9F%E4%BD%8F%E6%B0%91%E7%94%9F%E6%85%8B%E6%99%BA%E6%85%A7%E8%88%87%E7%92%B0%E5%A2%83%E4%BF%9D%E8%82%B2",
    "desc": "探討台灣原住民族數千年來累積的傳統生態知識，以及在現代環境保育中的重要價值與實踐方式",
    "city": "花蓮"
  },
  {
    "title": "島嶼的山海之巔：台灣國家公園的生態與地景",
    "lat": 23.47508,
    "lng": 120.95905,
    "category": "nature",
    "region": "central",
    "link": "/nature/國家公園",
    "desc": "探索台灣九座國家公園的獨特生態系統與保育價值，從亞熱帶海岸到高山雪線的完整地景",
    "city": "南投"
  },
  {
    "title": "台灣山岳與登山文化",
    "lat": 23.472922,
    "lng": 120.964362,
    "category": "nature",
    "region": "central",
    "link": "/nature/%E5%8F%B0%E7%81%A3%E5%B1%B1%E5%B2%B3%E8%88%87%E7%99%BB%E5%B1%B1%E6%96%87%E5%8C%96",
    "desc": "268座三千公尺高山與百岳文化：台灣登山運動的發展與山岳保育挑戰",
    "city": "南投"
  },
  {
    "title": "台灣島嶼博物學：島嶼與世界的生命對話",
    "lat": 22.039728,
    "lng": 121.543548,
    "category": "nature",
    "region": "east",
    "link": "/nature/%E5%8F%B0%E7%81%A3%E5%B3%B6%E5%B6%BC%E5%8D%9A%E7%89%A9%E5%AD%B8%EF%BC%9A%E5%B3%B6%E5%B6%BC%E8%88%87%E4%B8%96%E7%95%8C%E7%9A%84%E7%94%9F%E5%91%BD%E5%B0%8D%E8%A9%B1",
    "desc": "從冰河時期的陸橋遷徙到南島語族的構樹基因，台灣不僅是生物的避難所，更是演化的十字路口。透過博物學家的雙眼，重新發現這座島嶼如何與世界進行生命對話。",
    "city": "台東"
  },
  {
    "title": "台灣森林生態系",
    "lat": 23.476654,
    "lng": 120.955634,
    "category": "nature",
    "region": "central",
    "link": "/nature/%E5%8F%B0%E7%81%A3%E6%A3%AE%E6%9E%97%E7%94%9F%E6%85%8B%E7%B3%BB",
    "desc": "一趟從海平面到玉山頂峰的垂直旅行，穿越地球上最密集的森林光譜",
    "city": "南投"
  },
  {
    "title": "台灣氣候變遷與淨零轉型",
    "lat": 22.624789,
    "lng": 120.301719,
    "category": "nature",
    "region": "south",
    "link": "/nature/%E5%8F%B0%E7%81%A3%E6%B0%A3%E5%80%99%E8%AE%8A%E9%81%B7%E8%88%87%E6%B7%A8%E9%9B%B6%E8%BD%89%E5%9E%8B",
    "desc": "台灣面臨氣候變遷衝擊，從極端氣候頻繁發生到2050淨零碳排目標的政策規劃，探討能源轉型過程中的機會與挑戰",
    "city": "高雄"
  },
  {
    "title": "台灣海洋保育：為什麼花30年建成的體系，救不了一場珊瑚白化？",
    "lat": 22.338,
    "lng": 120.373,
    "category": "nature",
    "region": "south",
    "link": "/nature/%E5%8F%B0%E7%81%A3%E6%B5%B7%E6%B4%8B%E4%BF%9D%E8%82%B2%EF%BC%9A%E7%82%BA%E4%BB%80%E9%BA%BC%E8%8A%B130%E5%B9%B4%E5%BB%BA%E6%88%90%E7%9A%84%E9%AB%94%E7%B3%BB%EF%BC%8C%E6%95%91%E4%B8%8D%E4%BA%86%E4%B8%80%E5%A0%B4%E7%8F%8A%E7%91%9A%E7%99%BD%E5%8C%96%EF%BC%9F",
    "desc": "2020年，台灣海域經歷史上最大規模珊瑚白化。從小琉球到東沙環礁，連保護區內的珊瑚都在高溫中死去。這暴露了什麼問題？",
    "city": "屏東"
  },
  {
    "title": "台灣海洋污染治理與保育挑戰",
    "lat": 22.337487,
    "lng": 120.365105,
    "category": "nature",
    "region": "south",
    "link": "/nature/%E5%8F%B0%E7%81%A3%E6%B5%B7%E6%B4%8B%E6%B1%A1%E6%9F%93%E6%B2%BB%E7%90%86%E8%88%87%E4%BF%9D%E8%82%B2%E6%8C%91%E6%88%B0",
    "desc": "面對海洋廢棄物、過度捕撈與氣候變遷，探討台灣海洋保育的現況、挑戰與創新解決方案",
    "city": "屏東"
  },
  {
    "title": "台灣海洋生態",
    "lat": 22.027689,
    "lng": 121.54604,
    "category": "nature",
    "region": "east",
    "link": "/nature/%E5%8F%B0%E7%81%A3%E6%B5%B7%E6%B4%8B%E7%94%9F%E6%85%8B",
    "desc": "達悟族用禁忌守護的海域，如今在高溫與水下噪音中白化：當數千年生態智慧遇上現代海洋危機",
    "city": "台東"
  },
  {
    "title": "台灣海洋生態與珊瑚礁保育",
    "lat": 21.945073,
    "lng": 120.807064,
    "category": "nature",
    "region": "south",
    "link": "/nature/%E5%8F%B0%E7%81%A3%E6%B5%B7%E6%B4%8B%E7%94%9F%E6%85%8B%E8%88%87%E7%8F%8A%E7%91%9A%E7%A4%81%E4%BF%9D%E8%82%B2",
    "desc": "台灣四面環海擁有豐富海洋生態，從珊瑚礁白化危機到鯨豚保育，探討海洋國家公園的保護成效與未來挑戰",
    "city": "屏東"
  },
  {
    "title": "台灣溫泉與地熱",
    "lat": 22.663284,
    "lng": 121.495487,
    "category": "nature",
    "region": "east",
    "link": "/nature/%E5%8F%B0%E7%81%A3%E6%BA%AB%E6%B3%89%E8%88%87%E5%9C%B0%E7%86%B1",
    "desc": "從 30 年前失敗的地熱電廠到世界唯一北投石：一座島嶼如何把地底之火變成療癒與綠電",
    "city": "台東"
  },
  {
    "title": "台灣石虎保育",
    "lat": 24.561,
    "lng": 120.821,
    "category": "nature",
    "region": "central",
    "link": "/nature/%E5%8F%B0%E7%81%A3%E7%9F%B3%E8%99%8E%E4%BF%9D%E8%82%B2",
    "desc": "全台剩不到五百隻的幽靈貓——當最後的原生貓科走上消失的邊緣",
    "city": "苗栗"
  },
  {
    "title": "台灣穿山甲",
    "lat": 25.030986,
    "lng": 121.559686,
    "category": "nature",
    "region": "north",
    "link": "/nature/%E5%8F%B0%E7%81%A3%E7%A9%BF%E5%B1%B1%E7%94%B2",
    "desc": "全世界被走私最多的哺乳動物，在台灣找到了一個安全的家",
    "city": "台北"
  },
  {
    "title": "台灣高山生態系與冰河孑遺",
    "lat": 23.477196,
    "lng": 120.962749,
    "category": "nature",
    "region": "central",
    "link": "/nature/%E5%8F%B0%E7%81%A3%E9%AB%98%E5%B1%B1%E7%94%9F%E6%85%8B%E7%B3%BB%E8%88%87%E5%86%B0%E6%B2%B3%E5%AD%91%E9%81%BA",
    "desc": "探討台灣3000公尺以上高山環境的獨特生態系統，從台灣杉、玉山杜鵑到冰河時期孑遺物種的珍貴生物多樣性",
    "city": "南投"
  },
  {
    "title": "台灣黑熊",
    "lat": 25.030797,
    "lng": 121.558193,
    "category": "nature",
    "region": "north",
    "link": "/nature/%E5%8F%B0%E7%81%A3%E9%BB%91%E7%86%8A",
    "desc": "胸前的白色 V 字是牠的簽名——台灣山林最後的王者，與牠未完的保育戰",
    "city": "台北"
  },
  {
    "title": "國家公園",
    "lat": 24.158,
    "lng": 121.621,
    "category": "nature",
    "region": "east",
    "link": "/nature/國家公園",
    "desc": "36,197 平方公里塞進 9 座國家公園，密度世界第一的保育奇蹟",
    "city": "花蓮"
  },
  {
    "title": "特有種",
    "lat": 23.466173,
    "lng": 120.95536,
    "category": "nature",
    "region": "central",
    "link": "/nature/%E7%89%B9%E6%9C%89%E7%A8%AE",
    "desc": "台灣豐富的特有種生物，展現島嶼生物地理學的演化奇蹟與保育重要性",
    "city": "南投"
  },
  {
    "title": "生態多樣性",
    "lat": 23.475651,
    "lng": 120.949858,
    "category": "nature",
    "region": "central",
    "link": "/nature/%E7%94%9F%E6%85%8B%E5%A4%9A%E6%A8%A3%E6%80%A7",
    "desc": "台灣面積僅佔全球0.025%，卻擁有超過5萬種生物，森林覆蓋率60.71%排名全球第33位",
    "city": "南投"
  },
  {
    "title": "臺灣的鯨豚",
    "lat": 23.996448,
    "lng": 121.605806,
    "category": "nature",
    "region": "east",
    "link": "/nature/%E8%87%BA%E7%81%A3%E7%9A%84%E9%AF%A8%E8%B1%9A",
    "desc": "全球三分之一鯨豚物種的棲息地——從昔日捕鯨到今日賞鯨，臺灣如何轉身成為海洋生態研究重鎮？",
    "city": "花蓮"
  },
  {
    "title": "伍佰",
    "lat": 23.476356,
    "lng": 120.448041,
    "category": "people",
    "region": "south",
    "link": "/people/%E4%BC%8D%E4%BD%B0",
    "desc": "台灣搖滾國寶，本土搖滾樂的代名詞，以《挪威的森林》等作品奠定搖滾地位",
    "city": "嘉義"
  },
  {
    "title": "吳哲宇 — 用程式碼創造生命的新媒體藝術家",
    "lat": 25.037916,
    "lng": 121.57069,
    "category": "people",
    "region": "north",
    "link": "/people/%E5%90%B3%E5%93%B2%E5%AE%87%20%E2%80%94%20%E7%94%A8%E7%A8%8B%E5%BC%8F%E7%A2%BC%E5%89%B5%E9%80%A0%E7%94%9F%E5%91%BD%E7%9A%84%E6%96%B0%E5%AA%92%E9%AB%94%E8%97%9D%E8%A1%93%E5%AE%B6",
    "desc": "從台灣走向威尼斯雙年展、Art Basel Miami 的生成藝術先驅，用演算法在數位世界中鍛造永恆",
    "city": "台北"
  },
  {
    "title": "吳寶春",
    "lat": 22.686846,
    "lng": 120.480786,
    "category": "people",
    "region": "south",
    "link": "/people/%E5%90%B3%E5%AF%B6%E6%98%A5",
    "desc": "世界麵包大賽冠軍，以荔枝玫瑰麵包驚艷國際，從屏東鄉下到世界頂尖烘焙職人",
    "city": "屏東"
  },
  {
    "title": "呂秀蓮",
    "lat": 24.990491,
    "lng": 121.307615,
    "category": "people",
    "region": "north",
    "link": "/people/%E5%91%82%E7%A7%80%E8%93%AE",
    "desc": "從叛亂犯到副總統：華人世界第一位女性副總統的傳奇人生",
    "city": "桃園"
  },
  {
    "title": "周子瑜",
    "lat": 22.620631,
    "lng": 120.298958,
    "category": "people",
    "region": "south",
    "link": "/people/%E5%91%A8%E5%AD%90%E7%91%9C",
    "desc": "1999年生的歌星、韓國K-POP樂團TWICE的忙內",
    "city": "高雄"
  },
  {
    "title": "幾米",
    "lat": 24.752,
    "lng": 121.753,
    "category": "people",
    "region": "north",
    "link": "/people/%E5%B9%BE%E7%B1%B3",
    "desc": "用繪本溫暖世界的插畫詩人，讓台灣繪本走上國際舞台",
    "city": "宜蘭"
  },
  {
    "title": "戴資穎",
    "lat": 22.626643,
    "lng": 120.295783,
    "category": "people",
    "region": "south",
    "link": "/people/%E6%88%B4%E8%B3%87%E7%A9%8E",
    "desc": "214週世界球后紀錄保持者，從高雄前鎮到奧運銀牌的台灣羽球女王",
    "city": "高雄"
  },
  {
    "title": "李昂",
    "lat": 24.04814,
    "lng": 120.42946,
    "category": "people",
    "region": "central",
    "link": "/people/%E6%9D%8E%E6%98%82",
    "desc": "《殺夫》《迷園》作者，台灣女性主義文學先鋒",
    "city": "彰化"
  },
  {
    "title": "李智凱",
    "lat": 24.747616,
    "lng": 121.745575,
    "category": "people",
    "region": "north",
    "link": "/people/%E6%9D%8E%E6%99%BA%E5%87%B1",
    "desc": "從《翻滾吧！男孩》的菜市場凱到奧運銀牌，台灣鞍馬王子十六年的翻滾人生",
    "city": "宜蘭"
  },
  {
    "title": "李遠哲",
    "lat": 24.811259,
    "lng": 120.971327,
    "category": "people",
    "region": "north",
    "link": "/people/%E6%9D%8E%E9%81%A0%E5%93%B2",
    "desc": "1986 年諾貝爾化學獎得主，以交叉分子束技術開創化學動力學新領域，台灣首位諾貝爾科學獎得主",
    "city": "新竹"
  },
  {
    "title": "杜聰明",
    "lat": 25.028156,
    "lng": 121.570791,
    "category": "people",
    "region": "north",
    "link": "/people/%E6%9D%9C%E8%81%B0%E6%98%8E",
    "desc": "台灣第一位醫學博士，台灣現代醫學之父",
    "city": "台北"
  },
  {
    "title": "林書豪",
    "lat": 25.032756,
    "lng": 121.566487,
    "category": "people",
    "region": "north",
    "link": "/people/%E6%9E%97%E6%9B%B8%E8%B1%AA",
    "desc": "從哈佛學霸到NBA總冠軍，引爆全球林來瘋的台裔美國球員",
    "city": "台北"
  },
  {
    "title": "林義傑",
    "lat": 25.026327,
    "lng": 121.56613,
    "category": "people",
    "region": "north",
    "link": "/people/%E6%9E%97%E7%BE%A9%E5%82%91",
    "desc": "從被田徑隊拒絕的瘦小孩，到徒步橫越撒哈拉沙漠創造歷史的極地跑者",
    "city": "台北"
  },
  {
    "title": "林義雄",
    "lat": 24.757794,
    "lng": 121.747835,
    "category": "people",
    "region": "north",
    "link": "/people/%E6%9E%97%E7%BE%A9%E9%9B%84",
    "desc": "民主運動先驅，林宅血案受害者，反核四運動領袖",
    "city": "宜蘭"
  },
  {
    "title": "柯文哲",
    "lat": 25.034709,
    "lng": 121.572912,
    "category": "people",
    "region": "north",
    "link": "/people/%E6%9F%AF%E6%96%87%E5%93%B2",
    "desc": "從葉克膜 SOP 建立者到第三勢力旗手，台灣第一位無黨籍台北市長的跌宕政治史",
    "city": "台北"
  },
  {
    "title": "楊德昌",
    "lat": 25.039346,
    "lng": 121.559292,
    "category": "people",
    "region": "north",
    "link": "/people/%E6%A5%8A%E5%BE%B7%E6%98%8C",
    "desc": "台灣新電影運動核心人物，坎城最佳導演，都市疏離的詩人",
    "city": "台北"
  },
  {
    "title": "江振誠",
    "lat": 25.036386,
    "lng": 121.559732,
    "category": "people",
    "region": "north",
    "link": "/people/%E6%B1%9F%E6%8C%AF%E8%AA%A0",
    "desc": "從淡水商工到世界第14、塞舌爾的頓悟到台北大直的回歸，André Chiang 以八角哲學在國際餐飲界為台灣廚師確立了一個新座標",
    "city": "台北"
  },
  {
    "title": "洪醒夫：提早隕落的鄉土文學巨星",
    "lat": 24.076442,
    "lng": 120.533494,
    "category": "people",
    "region": "central",
    "link": "/people/%E6%B4%AA%E9%86%92%E5%A4%AB%EF%BC%9A%E6%8F%90%E6%97%A9%E9%9A%95%E8%90%BD%E7%9A%84%E9%84%89%E5%9C%9F%E6%96%87%E5%AD%B8%E5%B7%A8%E6%98%9F",
    "desc": "1949年出生於彰化二林貧苦農家的洪醒夫，18歲發表第一篇小說，33歲因車禍離世前以小學教師身份創作鄉土文學，用短短15年寫出《黑面慶仔》、《吾土》、《散戲》等經典，捕捉台灣農村從農業到工商轉型的真實面貌，被文友戲稱「洪醒夫斯基」，成為戰後台灣文學不可磨滅的田莊之聲。",
    "city": "彰化"
  },
  {
    "title": "白先勇",
    "lat": 25.028639,
    "lng": 121.572334,
    "category": "people",
    "region": "north",
    "link": "/people/%E7%99%BD%E5%85%88%E5%8B%87",
    "desc": "《台北人》作者，現代文學大師與崑曲復興推手",
    "city": "台北"
  },
  {
    "title": "盧廣仲",
    "lat": 22.991664,
    "lng": 120.231262,
    "category": "people",
    "region": "south",
    "link": "/people/%E7%9B%A7%E5%BB%A3%E4%BB%B2",
    "desc": "台灣創作歌手、演員，三金得主（金曲、金鐘、金馬），以草根親切形象與獨特唱腔聞名",
    "city": "台南"
  },
  {
    "title": "莊智淵",
    "lat": 22.634579,
    "lng": 120.297325,
    "category": "people",
    "region": "south",
    "link": "/people/%E8%8E%8A%E6%99%BA%E6%B7%B5",
    "desc": "桌球教父，四屆奧運代表，獨自苦練的孤獨英雄",
    "city": "高雄"
  },
  {
    "title": "蔡明亮",
    "lat": 25.036472,
    "lng": 121.564311,
    "category": "people",
    "region": "north",
    "link": "/people/%E8%94%A1%E6%98%8E%E4%BA%AE",
    "desc": "威尼斯金獅獎得主，馬來西亞華人，慢電影美學大師",
    "city": "台北"
  },
  {
    "title": "許文龍",
    "lat": 22.936659,
    "lng": 120.223655,
    "category": "people",
    "region": "south",
    "link": "/people/%E8%A8%B1%E6%96%87%E9%BE%8D",
    "desc": "奇美集團創辦人，企業家、小提琴家、藝術收藏家的三重身份，奇美博物館創建者",
    "city": "台南"
  },
  {
    "title": "許芳宜",
    "lat": 24.755461,
    "lng": 121.759999,
    "category": "people",
    "region": "north",
    "link": "/people/%E8%A8%B1%E8%8A%B3%E5%AE%9C",
    "desc": "從宜蘭女孩到瑪乘舞團首席，再回台灣創立拉芳舞團——她用身體說出台灣最有力量的故事",
    "city": "宜蘭"
  },
  {
    "title": "賴清德：從礦工家庭到總統府的公共衛生醫師",
    "lat": 22.998566,
    "lng": 120.22826,
    "category": "people",
    "region": "south",
    "link": "/people/%E8%B3%B4%E6%B8%85%E5%BE%B7%EF%BC%9A%E5%BE%9E%E7%A4%A6%E5%B7%A5%E5%AE%B6%E5%BA%AD%E5%88%B0%E7%B8%BD%E7%B5%B1%E5%BA%9C%E7%9A%84%E5%85%AC%E5%85%B1%E8%A1%9B%E7%94%9F%E9%86%AB%E5%B8%AB",
    "desc": "台灣第16任總統，中華民國憲政史上首位以副總統身分參選並成功當選的政治人物",
    "city": "台南"
  },
  {
    "title": "郁永河",
    "lat": 25.173309,
    "lng": 121.441508,
    "category": "people",
    "region": "north",
    "link": "/people/%E9%83%81%E6%B0%B8%E6%B2%B3",
    "desc": "1697年，一個杭州書生自願跑到瘴癘之地台灣採硫磺，從台南徒步走到北投，寫下台灣最早的北部紀實文學",
    "city": "新北"
  },
  {
    "title": "郭婞淳",
    "lat": 22.756,
    "lng": 121.144,
    "category": "people",
    "region": "east",
    "link": "/people/%E9%83%AD%E5%A9%9E%E6%B7%B3",
    "desc": "台灣舉重女神，2021 東京奧運金牌得主，59 公斤級三項奧運紀錄保持人",
    "city": "台東"
  },
  {
    "title": "鄧雨賢",
    "lat": 24.986245,
    "lng": 121.299378,
    "category": "people",
    "region": "north",
    "link": "/people/%E9%84%A7%E9%9B%A8%E8%B3%A2",
    "desc": "台灣歌謠之父，創作《望春風》《雨夜花》《月夜愁》等經典台語歌謠",
    "city": "桃園"
  },
  {
    "title": "鄭南榕",
    "lat": 25.02548,
    "lng": 121.568501,
    "category": "people",
    "region": "north",
    "link": "/people/%E9%84%AD%E5%8D%97%E6%A6%95",
    "desc": "他在創刊前就準備了24張雜誌執照，因為他知道政府會一直關他的刊——一個「外省囝仔」如何為整座島嶼的言論自由而死",
    "city": "台北"
  },
  {
    "title": "鄭成功",
    "lat": 22.991211,
    "lng": 120.233341,
    "category": "people",
    "region": "south",
    "link": "/people/%E9%84%AD%E6%88%90%E5%8A%9F",
    "desc": "一個中日混血海盜之子，用十六年抗清、九個月攻台、五個月建國，然後在三十七歲暴斃——他的名字至今被四個政權爭相認領",
    "city": "台南"
  },
  {
    "title": "鍾理和",
    "lat": 22.625378,
    "lng": 120.305659,
    "category": "people",
    "region": "south",
    "link": "/people/%E9%8D%BE%E7%90%86%E5%92%8C",
    "desc": "《原鄉人》作者，台灣文學之父，貧病交加仍堅持創作的文學鬥士",
    "city": "高雄"
  },
  {
    "title": "陳樹菊",
    "lat": 22.758879,
    "lng": 121.139014,
    "category": "people",
    "region": "east",
    "link": "/people/%E9%99%B3%E6%A8%B9%E8%8F%8A",
    "desc": "台東菜販的平凡善舉，用一生詮釋什麼是真正的富有",
    "city": "台東"
  },
  {
    "title": "陳水扁",
    "lat": 25.035663,
    "lng": 121.562142,
    "category": "people",
    "region": "north",
    "link": "/people/%E9%99%B3%E6%B0%B4%E6%89%81",
    "desc": "台灣第十、十一任總統，2000年首次政黨輪替實現者，公投法與原住民族基本法的推動者",
    "city": "台北"
  },
  {
    "title": "馬英九",
    "lat": 25.029404,
    "lng": 121.560084,
    "category": "people",
    "region": "north",
    "link": "/people/%E9%A6%AC%E8%8B%B1%E4%B9%9D",
    "desc": "中華民國第十二、十三任總統，兩岸破冰政策的推手，也是22K薪資停滯與太陽花學運的執政背景",
    "city": "台北"
  },
  {
    "title": "王齊麟與李洋（麟洋配）",
    "lat": 25.037666,
    "lng": 121.560673,
    "category": "people",
    "region": "north",
    "link": "/people/%E7%8E%8B%E9%BD%8A%E9%BA%9F%E8%88%87%E6%9D%8E%E6%B4%8B%EF%BC%88%E9%BA%9F%E6%B4%8B%E9%85%8D%EF%BC%89",
    "desc": "從國中同學到奧運金牌：「麟洋配」34分鐘內直落二擊敗中國，寫下台灣羽球史上第一面奧運金牌",
    "city": "台北"
  },
  {
    "title": "黃春明",
    "lat": 24.759986,
    "lng": 121.755328,
    "category": "people",
    "region": "north",
    "link": "/people/%E9%BB%83%E6%98%A5%E6%98%8E",
    "desc": "《兒子的大玩偶》《看海的日子》作者，宜蘭鄉土文學代表作家",
    "city": "宜蘭"
  },
  {
    "title": "黃震南",
    "lat": 23.473849,
    "lng": 120.441436,
    "category": "people",
    "region": "south",
    "link": "/people/%E9%BB%83%E9%9C%87%E5%8D%97",
    "desc": "黃震南是台灣文史工作者、藏書家與作家，以PTT暱稱Sizumaru起家，經營「活水來冊房」專頁分享台灣歷史與舊書文化。著有《台灣史上最有梗的台灣史》等書，被譽為藏書界的竹野內豐。他從嘉義六腳書香家庭出發，父子南北分工蒐集文獻，致力讓嚴肅台灣史變得有趣親民。",
    "city": "嘉義"
  },
  {
    "title": "齊柏林",
    "lat": 25.029813,
    "lng": 121.5647,
    "category": "people",
    "region": "north",
    "link": "/people/%E9%BD%8A%E6%9F%8F%E6%9E%97",
    "desc": "一個公務員薪水養不起直升機的人，如何用抵押房子的錢拍出台灣紀錄片史上最成功的作品",
    "city": "台北"
  },
  {
    "title": "動物園與展演動物倫理",
    "lat": 24.80413,
    "lng": 120.967294,
    "category": "society",
    "region": "north",
    "link": "/society/%E5%8B%95%E7%89%A9%E5%9C%92%E8%88%87%E5%B1%95%E6%BC%94%E5%8B%95%E7%89%A9%E5%80%AB%E7%90%86",
    "desc": "從鐵籠裡的大象到 Xpark 的水母牆——台灣正在重新定義人與被展示動物的關係",
    "city": "新竹"
  },
  {
    "title": "台灣原住民族土地正義與傳統領域",
    "lat": 24.157887,
    "lng": 121.625828,
    "category": "society",
    "region": "east",
    "link": "/society/%E5%8F%B0%E7%81%A3%E5%8E%9F%E4%BD%8F%E6%B0%91%E6%97%8F%E5%9C%9F%E5%9C%B0%E6%AD%A3%E7%BE%A9%E8%88%87%E5%82%B3%E7%B5%B1%E9%A0%98%E5%9F%9F",
    "desc": "探討台灣原住民族土地權利的歷史脈絡、法律發展、傳統領域劃設爭議與原住民族轉型正義委員會的工作成果",
    "city": "花蓮"
  },
  {
    "title": "台灣同婚與性別平權",
    "lat": 25.032608,
    "lng": 121.561569,
    "category": "society",
    "region": "north",
    "link": "/society/%E5%8F%B0%E7%81%A3%E5%90%8C%E5%A9%9A%E8%88%87%E6%80%A7%E5%88%A5%E5%B9%B3%E6%AC%8A",
    "desc": "從戒嚴期的監獄囚犯到亞洲第一部同婚法，一個男人的30年奮鬥如何改寫島嶼的愛情定義",
    "city": "台北"
  },
  {
    "title": "台灣的斜槓世代——一人多職的生存與選擇",
    "lat": 25.035498,
    "lng": 121.561683,
    "category": "society",
    "region": "north",
    "link": "/society/%E5%8F%B0%E7%81%A3%E7%9A%84%E6%96%9C%E6%A7%93%E4%B8%96%E4%BB%A3%E2%80%94%E2%80%94%E4%B8%80%E4%BA%BA%E5%A4%9A%E8%81%B7%E7%9A%84%E7%94%9F%E5%AD%98%E8%88%87%E9%81%B8%E6%93%87",
    "desc": "當碩士學歷只換得來一間台北套房的租金，斜槓不是選擇，是活下去的數學題",
    "city": "台北"
  },
  {
    "title": "鏟子超人與島嶼共時性：台灣災難志工文化如何形塑國族認同",
    "lat": 23.993086,
    "lng": 121.60048,
    "category": "society",
    "region": "east",
    "link": "/society/%E9%8F%9F%E5%AD%90%E8%B6%85%E4%BA%BA%E8%88%87%E5%B3%B6%E5%B6%BC%E5%85%B1%E6%99%82%E6%80%A7%EF%BC%9A%E5%8F%B0%E7%81%A3%E7%81%BD%E9%9B%A3%E5%BF%97%E5%B7%A5%E6%96%87%E5%8C%96%E5%A6%82%E4%BD%95%E5%BD%A2%E5%A1%91%E5%9C%8B%E6%97%8F%E8%AA%8D%E5%90%8C",
    "desc": "以2025年花蓮光復鄉水災為鏡，探討台灣獨特的災難志工動員模式如何透過社群媒體重新定義島嶼共同體意識，從921地震到花蓮水災的社會韌性演化軌跡。",
    "city": "花蓮"
  },
  {
    "title": "台灣環境正義與鄰避爭議",
    "lat": 22.0259,
    "lng": 121.552019,
    "category": "society",
    "region": "east",
    "link": "/society/%E5%8F%B0%E7%81%A3%E7%92%B0%E5%A2%83%E6%AD%A3%E7%BE%A9%E8%88%87%E9%84%B0%E9%81%BF%E7%88%AD%E8%AD%B0",
    "desc": "探討台灣環境負擔分配不均現象，從焚化爐、核廢料到石化業的鄰避衝突，分析環境不平等問題與社會公義議題",
    "city": "台東"
  },
  {
    "title": "台灣社區與里文化",
    "lat": 25.034868,
    "lng": 121.562039,
    "category": "society",
    "region": "north",
    "link": "/society/%E5%8F%B0%E7%81%A3%E7%A4%BE%E5%8D%80%E8%88%87%E9%87%8C%E6%96%87%E5%8C%96",
    "desc": "從最基層的民主實踐到社區營造的社會創新",
    "city": "台北"
  },
  {
    "title": "台灣長期照顧制度發展",
    "lat": 25.031292,
    "lng": 121.570252,
    "category": "society",
    "region": "north",
    "link": "/society/%E5%8F%B0%E7%81%A3%E9%95%B7%E6%9C%9F%E7%85%A7%E9%A1%A7%E5%88%B6%E5%BA%A6%E7%99%BC%E5%B1%95",
    "desc": "全世界最先進的長照制度，卻同時存在著最大的隱形照顧體系",
    "city": "台北"
  },
  {
    "title": "環保與永續發展",
    "lat": 24.052568,
    "lng": 120.430946,
    "category": "society",
    "region": "central",
    "link": "/society/%E7%92%B0%E4%BF%9D%E8%88%87%E6%B0%B8%E7%BA%8C%E7%99%BC%E5%B1%95",
    "desc": "從煙囪之島到淨零台灣：40年環保運動的覺醒之路",
    "city": "彰化"
  },
  {
    "title": "社會住宅與居住正義",
    "lat": 25.040047,
    "lng": 121.561544,
    "category": "society",
    "region": "north",
    "link": "/society/%E7%A4%BE%E6%9C%83%E4%BD%8F%E5%AE%85%E8%88%87%E5%B1%85%E4%BD%8F%E6%AD%A3%E7%BE%A9",
    "desc": "台灣如何透過社會住宅政策實現居住正義，讓每個人都有安身立命的地方",
    "city": "台北"
  },
  {
    "title": "野百合學運",
    "lat": 25.041821,
    "lng": 121.516894,
    "category": "society",
    "region": "north",
    "link": "/society/%E9%87%8E%E7%99%BE%E5%90%88%E5%AD%B8%E9%81%8B",
    "desc": "一群大學生在中正紀念堂靜坐七天，最後逼得一個拖了四十多年的政治體制開始鬆動。野百合學運真正改變的，不只是國是會議，而是台灣人第一次清楚看見：學生可以直接改寫憲政改革的時間表。 ",
    "city": "台北"
  },
  {
    "title": "半導體產業",
    "lat": 24.77912,
    "lng": 120.997634,
    "category": "technology",
    "region": "north",
    "link": "/technology/%E5%8D%8A%E5%B0%8E%E9%AB%94%E7%94%A2%E6%A5%AD",
    "desc": "從張忠謀的歷史賭注到2奈米時代：台積電如何讓台灣成為全球科技命脈",
    "city": "新竹"
  },
  {
    "title": "台灣的 AI 日常——當人工智慧走進街頭巷尾",
    "lat": 23.477323,
    "lng": 120.445913,
    "category": "technology",
    "region": "south",
    "link": "/technology/%E5%8F%B0%E7%81%A3%E7%9A%84%20AI%20%E6%97%A5%E5%B8%B8%E2%80%94%E2%80%94%E7%95%B6%E4%BA%BA%E5%B7%A5%E6%99%BA%E6%85%A7%E8%B5%B0%E9%80%B2%E8%A1%97%E9%A0%AD%E5%B7%B7%E5%B0%BE",
    "desc": "台灣人每天跟 AI 互動十幾次，但多數人不知道自己在跟 AI 說話",
    "city": "嘉義"
  },
  {
    "title": "當地震來襲時，誰在值班？台灣災難醫療體系的制度密碼",
    "lat": 23.994983,
    "lng": 121.595235,
    "category": "technology",
    "region": "east",
    "link": "/technology/%E7%95%B6%E5%9C%B0%E9%9C%87%E4%BE%86%E8%A5%B2%E6%99%82%EF%BC%8C%E8%AA%B0%E5%9C%A8%E5%80%BC%E7%8F%AD%EF%BC%9F%E5%8F%B0%E7%81%A3%E7%81%BD%E9%9B%A3%E9%86%AB%E7%99%82%E9%AB%94%E7%B3%BB%E7%9A%84%E5%88%B6%E5%BA%A6%E5%AF%86%E7%A2%BC",
    "desc": "從921地震到花蓮強震，台灣如何建構出以急診科為核心的災難醫療網？制度設計的精妙之處不在設備，而在「誰值班」的巧思。",
    "city": "花蓮"
  },
  {
    "title": "科技園區發展",
    "lat": 24.811158,
    "lng": 120.97354,
    "category": "technology",
    "region": "north",
    "link": "/technology/%E7%A7%91%E6%8A%80%E5%9C%92%E5%8D%80%E7%99%BC%E5%B1%95",
    "desc": "從一座稻田上的賭注到年產值五兆的矽盾——台灣三大科學園區如何用四十五年改寫全球科技地圖",
    "city": "新竹"
  },
  {
    "title": "関聖帝君：敗れた将軍はいかにして台湾の万能神となったか",
    "lat": 25.026888,
    "lng": 121.564918,
    "category": "ja",
    "region": "north",
    "link": "/ja/%E9%96%A2%E8%81%96%E5%B8%9D%E5%90%9B%EF%BC%9A%E6%95%97%E3%82%8C%E3%81%9F%E5%B0%86%E8%BB%8D%E3%81%AF%E3%81%84%E3%81%8B%E3%81%AB%E3%81%97%E3%81%A6%E5%8F%B0%E6%B9%BE%E3%81%AE%E4%B8%87%E8%83%BD%E7%A5%9E%E3%81%A8%E3%81%AA%E3%81%A3%E3%81%9F%E3%81%8B",
    "desc": "三国時代の武将・関羽は戦に敗れ斬首されたにもかかわらず、台湾では世界に類を見ない「恩主公（エンジュコン）」信仰へと進化した。そして全台湾でもっとも賑わう関帝廟は、線香を一本も焚かせない。",
    "city": "台北"
  },
  {
    "title": "台湾企業：TSMC（台湾積体電路製造）",
    "lat": 24.806005,
    "lng": 120.963461,
    "category": "ja",
    "region": "north",
    "link": "/ja/%E5%8F%B0%E6%B9%BE%E4%BC%81%E6%A5%AD%EF%BC%9ATSMC%EF%BC%88%E5%8F%B0%E6%B9%BE%E7%A9%8D%E4%BD%93%E9%9B%BB%E8%B7%AF%E8%A3%BD%E9%80%A0%EF%BC%89",
    "desc": "56歳の男が1987年に「世界誰も試みたことのない」会社を創業し、それが地球上で最も重要な工場になるまで",
    "city": "新竹"
  },
  {
    "title": "台湾牛肉麺",
    "lat": 25.030039,
    "lng": 121.572616,
    "category": "ja",
    "region": "north",
    "link": "/ja/%E5%8F%B0%E6%B9%BE%E7%89%9B%E8%82%89%E9%BA%BA",
    "desc": "外省移民の郷愁の味から、台湾を代表する国民食へ。牛肉麺がたどってきた文化融合の歴史と、世界へ広がる魅力をたどる。",
    "city": "台北"
  },
  {
    "title": "客家の食文化",
    "lat": 24.803658,
    "lng": 120.962881,
    "category": "ja",
    "region": "north",
    "link": "/ja/%E5%AE%A2%E5%AE%B6%E3%81%AE%E9%A3%9F%E6%96%87%E5%8C%96",
    "desc": "客家の食文化は、擂茶の香ばしい深みから野姜花粽の山の気配まで、倹約を重んじ、土地の恵みを生かしてきた暮らしの知恵を映し出しています。",
    "city": "新竹"
  },
  {
    "title": "夜市文化",
    "lat": 25.081406,
    "lng": 121.530862,
    "category": "ja",
    "region": "north",
    "link": "/ja/%E5%A4%9C%E5%B8%82%E6%96%87%E5%8C%96",
    "desc": "164の公認夜市、台南では平均3.8万人に1つの夜市——廟の前庭から国際観光スポットへ",
    "city": "台北"
  },
  {
    "title": "台湾の辦桌（バンドー）文化",
    "lat": 22.63001,
    "lng": 120.299886,
    "category": "ja",
    "region": "south",
    "link": "/ja/%E5%8F%B0%E6%B9%BE%E3%81%AE%E8%BE%A6%E6%A1%8C%EF%BC%88%E3%83%90%E3%83%B3%E3%83%89%E3%83%BC%EF%BC%89%E6%96%87%E5%8C%96",
    "desc": "数値には表れにくいこの産業は、なぜ台湾でもっとも粘り強い文化の担い手となったのか。康熙年間からパンデミックの冬までをたどる、辦桌の物語。",
    "city": "高雄"
  },
  {
    "title": "日本統治時代",
    "lat": 22.629959,
    "lng": 120.294937,
    "category": "ja",
    "region": "south",
    "link": "/ja/%E6%97%A5%E6%9C%AC%E7%B5%B1%E6%B2%BB%E6%99%82%E4%BB%A3",
    "desc": "1895年から1945年の50年間に及ぶ日本の台湾統治。全面的な近代化建設と制度化された管理を推進する一方、同化政策を実施し、台湾社会の発展に深い影響を与えた",
    "city": "高雄"
  },
  {
    "title": "コンビニ文化",
    "lat": 25.025566,
    "lng": 121.569362,
    "category": "ja",
    "region": "north",
    "link": "/ja/%E3%82%B3%E3%83%B3%E3%83%93%E3%83%8B%E6%96%87%E5%8C%96",
    "desc": "世界一の店舗密度を誇る台湾のコンビニが、いかにして一国の「生活インフラ」へと進化したか",
    "city": "台北"
  },
  {
    "title": "国家公園",
    "lat": 23.474299,
    "lng": 120.949936,
    "category": "ja",
    "region": "central",
    "link": "/ja/%E5%9B%BD%E5%AE%B6%E5%85%AC%E5%9C%92",
    "desc": "台湾9つの国家公園の生態系の宝庫——玉山の頂から海底世界まで、完全な保全体系",
    "city": "南投"
  },
  {
    "title": "半導体産業",
    "lat": 24.808862,
    "lng": 120.975881,
    "category": "ja",
    "region": "north",
    "link": "/ja/%E5%8D%8A%E5%B0%8E%E4%BD%93%E7%94%A3%E6%A5%AD",
    "desc": "モリス・チャンの歴史的な賭けから2ナノメートル時代へ：TSMCはいかにして台湾を世界の技術的命脈にしたか",
    "city": "新竹"
  }
]